% program   : ES 1.2
% inp file  : /Users/alex/terra-submersa/campaigns/2022/20220808/reach-rs2/ts_reach_ro_raw_202208080523_RINEX_3_03/ts_reach_ro_raw_202208080523.22O
% inp file  : /Users/alex/terra-submersa/campaigns/2022/20220808/reach-rs2/ts_reach_ba_raw_202208080522_RINEX_3_03/ts_reach_ba_raw_202208080522.22P
% inp file  : /Users/alex/terra-submersa/campaigns/2022/20220808/reach-rs2/ts_reach_ba_raw_202208080522_RINEX_3_03/ts_reach_ba_raw_202208080522.22O
% obs start : 2022/08/08 05:24:20.2 GPST (week2222 105860.2s)
% obs end   : 2022/08/08 07:13:54.0 GPST (week2222 112434.0s)
% ref pos   : 37.428208763  23.134107761   38.7059
%
% (lat/lon/height=WGS84/ellipsoidal,Q=1:fix,2:float,3:sbas,4:dgps,5:single,6:ppp,ns=# of satellites)
%  GPST                  latitude(deg) longitude(deg)  height(m)   Q  ns   sdn(m)   sde(m)   sdu(m)  sdne(m)  sdeu(m)  sdun(m) age(s)  ratio
2022/08/08 06:34:00.000   37.428008881   23.133665270    37.5177   1  22   0.0033   0.0030   0.0071   0.0008   0.0002  -0.0018   0.00  429.1
2022/08/08 06:34:00.200   37.428008901   23.133664673    37.5087   1  22   0.0033   0.0031   0.0072   0.0010  -0.0011  -0.0019   0.00  505.9
2022/08/08 06:34:00.400   37.428008947   23.133664400    37.4350   1  22   0.0033   0.0031   0.0072   0.0010  -0.0011  -0.0020   0.00  510.3
2022/08/08 06:34:00.600   37.428008883   23.133664737    37.3838   1  22   0.0033   0.0031   0.0072   0.0010  -0.0011  -0.0020   0.00  514.2
2022/08/08 06:34:00.800   37.428008975   23.133664816    37.3776   1  22   0.0033   0.0030   0.0071   0.0008   0.0002  -0.0018   0.00  440.3
2022/08/08 06:34:01.000   37.428009057   23.133664389    37.3995   1  22   0.0033   0.0030   0.0071   0.0008   0.0002  -0.0018   0.00  442.7
2022/08/08 06:34:01.200   37.428009014   23.133664373    37.4280   1  22   0.0033   0.0031   0.0072   0.0009  -0.0011  -0.0019   0.00  524.3
2022/08/08 06:34:01.400   37.428009025   23.133664104    37.4572   1  22   0.0033   0.0031   0.0072   0.0010  -0.0011  -0.0019   0.00  527.8
2022/08/08 06:34:01.600   37.428008843   23.133663705    37.4600   1  22   0.0033   0.0031   0.0072   0.0010  -0.0011  -0.0019   0.00  532.1
2022/08/08 06:34:01.800   37.428008713   23.133663160    37.4424   1  22   0.0033   0.0031   0.0072   0.0010  -0.0011  -0.0019   0.00  535.2
2022/08/08 06:34:02.000   37.428008551   23.133662972    37.4300   1  22   0.0033   0.0030   0.0071   0.0008   0.0002  -0.0018   0.00  458.0
2022/08/08 06:34:02.200   37.428008565   23.133662900    37.4134   1  22   0.0033   0.0030   0.0071   0.0008   0.0002  -0.0018   0.00  461.5
2022/08/08 06:34:02.400   37.428008519   23.133662912    37.4167   1  22   0.0033   0.0031   0.0072   0.0009  -0.0011  -0.0019   0.00  546.0
2022/08/08 06:34:02.600   37.428008399   23.133662886    37.4143   1  22   0.0033   0.0031   0.0072   0.0009  -0.0011  -0.0019   0.00  549.8
2022/08/08 06:34:02.800   37.428008464   23.133662734    37.4133   1  22   0.0033   0.0031   0.0072   0.0009  -0.0011  -0.0019   0.00  553.9
2022/08/08 06:34:03.000   37.428008383   23.133662954    37.4203   1  22   0.0033   0.0031   0.0072   0.0009  -0.0011  -0.0019   0.00  557.7
2022/08/08 06:34:03.200   37.428007931   23.133663110    37.4348   1  22   0.0033   0.0031   0.0072   0.0009  -0.0011  -0.0019   0.00  560.9
2022/08/08 06:34:03.400   37.428007596   23.133663361    37.4397   1  22   0.0033   0.0031   0.0072   0.0009  -0.0011  -0.0019   0.00  563.7
2022/08/08 06:34:03.600   37.428007327   23.133663596    37.4369   1  22   0.0033   0.0031   0.0072   0.0009  -0.0011  -0.0019   0.00  567.1
2022/08/08 06:34:03.800   37.428007326   23.133663712    37.4249   1  22   0.0034   0.0031   0.0073   0.0009  -0.0011  -0.0016   0.00    3.4
2022/08/08 06:34:04.000   37.428006823   23.133663925    37.4325   1  22   0.0034   0.0031   0.0073   0.0009  -0.0011  -0.0016   0.00    7.6
2022/08/08 06:34:04.200   37.428006396   23.133664225    37.4312   1  22   0.0033   0.0031   0.0072   0.0009  -0.0011  -0.0019   0.00   11.8
2022/08/08 06:34:04.400   37.428006682   23.133664072    37.4225   1  22   0.0033   0.0031   0.0072   0.0009  -0.0011  -0.0019   0.00   16.0
2022/08/08 06:34:04.600   37.428007527   23.133663817    37.3724   1  22   0.0033   0.0031   0.0072   0.0009  -0.0011  -0.0019   0.00   20.2
2022/08/08 06:34:04.800   37.428007599   23.133663800    37.3773   1  22   0.0033   0.0031   0.0072   0.0009  -0.0011  -0.0019   0.00   24.6
2022/08/08 06:34:05.000   37.428007517   23.133664045    37.4151   1  22   0.0033   0.0031   0.0072   0.0009  -0.0011  -0.0019   0.00   28.8
2022/08/08 06:34:05.200   37.428007497   23.133664289    37.4660   1  22   0.0033   0.0031   0.0072   0.0009  -0.0011  -0.0019   0.00   33.0
2022/08/08 06:34:05.400   37.428007648   23.133664187    37.4897   1  22   0.0033   0.0031   0.0072   0.0009  -0.0011  -0.0019   0.00   37.3
2022/08/08 06:34:05.600   37.428007966   23.133664063    37.4593   1  22   0.0033   0.0031   0.0072   0.0009  -0.0011  -0.0019   0.00   41.5
2022/08/08 06:34:05.800   37.428008112   23.133664241    37.4135   1  22   0.0033   0.0031   0.0072   0.0009  -0.0011  -0.0019   0.00   45.9
2022/08/08 06:34:06.000   37.428008224   23.133664351    37.3816   1  22   0.0033   0.0031   0.0072   0.0009  -0.0011  -0.0019   0.00   50.3
2022/08/08 06:34:06.200   37.428008258   23.133664648    37.3870   1  22   0.0033   0.0031   0.0072   0.0009  -0.0011  -0.0019   0.00   54.7
2022/08/08 06:34:06.400   37.428008207   23.133665301    37.4358   1  22   0.0033   0.0031   0.0072   0.0009  -0.0011  -0.0019   0.00   59.0
2022/08/08 06:34:06.600   37.428008199   23.133665549    37.4691   1  22   0.0033   0.0031   0.0072   0.0009  -0.0011  -0.0019   0.00   63.2
2022/08/08 06:34:06.800   37.428008063   23.133665438    37.4909   1  22   0.0033   0.0031   0.0072   0.0009  -0.0011  -0.0019   0.00   67.4
2022/08/08 06:34:07.000   37.428008024   23.133665696    37.4714   1  22   0.0033   0.0031   0.0072   0.0009  -0.0011  -0.0019   0.00   71.9
2022/08/08 06:34:07.200   37.428008068   23.133666157    37.4361   1  22   0.0033   0.0031   0.0072   0.0009  -0.0011  -0.0019   0.00   76.3
2022/08/08 06:34:07.400   37.428008184   23.133666300    37.3926   1  22   0.0033   0.0031   0.0072   0.0009  -0.0011  -0.0019   0.00   80.6
2022/08/08 06:34:07.600   37.428008039   23.133666330    37.3932   1  22   0.0033   0.0031   0.0072   0.0009  -0.0011  -0.0019   0.00   85.1
2022/08/08 06:34:07.800   37.428007836   23.133666466    37.4236   1  22   0.0033   0.0031   0.0072   0.0009  -0.0011  -0.0019   0.00   89.4
2022/08/08 06:34:08.000   37.428007662   23.133666593    37.4547   1  22   0.0033   0.0031   0.0072   0.0009  -0.0011  -0.0019   0.00   93.8
2022/08/08 06:34:08.200   37.428007701   23.133666446    37.4672   1  22   0.0033   0.0031   0.0072   0.0009  -0.0011  -0.0019   0.00   98.0
2022/08/08 06:34:08.400   37.428007800   23.133666270    37.4477   1  22   0.0033   0.0031   0.0072   0.0009  -0.0011  -0.0019   0.00  102.4
2022/08/08 06:34:08.600   37.428007891   23.133666493    37.4100   1  22   0.0033   0.0031   0.0072   0.0009  -0.0011  -0.0019   0.00  106.9
2022/08/08 06:34:08.800   37.428007743   23.133666726    37.4150   1  22   0.0033   0.0031   0.0072   0.0009  -0.0011  -0.0019   0.00  111.3
2022/08/08 06:34:09.000   37.428007393   23.133666824    37.4501   1  22   0.0033   0.0031   0.0072   0.0009  -0.0011  -0.0019   0.00  115.7
2022/08/08 06:34:09.200   37.428007215   23.133666827    37.4776   1  22   0.0033   0.0031   0.0072   0.0009  -0.0011  -0.0019   0.00  120.0
2022/08/08 06:34:09.400   37.428007303   23.133666463    37.4776   1  22   0.0033   0.0031   0.0072   0.0009  -0.0011  -0.0019   0.00  124.6
2022/08/08 06:34:09.600   37.428007528   23.133666151    37.4254   1  22   0.0033   0.0031   0.0073   0.0008  -0.0012  -0.0019   0.00  130.1
2022/08/08 06:34:09.800   37.428007556   23.133666355    37.3980   1  22   0.0033   0.0031   0.0073   0.0008  -0.0013  -0.0019   0.00  134.5
2022/08/08 06:34:10.000   37.428007359   23.133666300    37.4022   1  22   0.0033   0.0031   0.0073   0.0008  -0.0013  -0.0019   0.00  139.0
2022/08/08 06:34:10.200   37.428007118   23.133666192    37.4398   1  22   0.0033   0.0031   0.0073   0.0008  -0.0013  -0.0019   0.00  143.4
2022/08/08 06:34:10.400   37.428007029   23.133666143    37.4861   1  22   0.0033   0.0031   0.0073   0.0008  -0.0013  -0.0019   0.00  147.0
2022/08/08 06:34:10.600   37.428007193   23.133665835    37.4989   1  22   0.0033   0.0031   0.0073   0.0008  -0.0013  -0.0019   0.00  150.3
2022/08/08 06:34:10.800   37.428007287   23.133665532    37.4665   1  22   0.0033   0.0031   0.0073   0.0008  -0.0013  -0.0019   0.00  153.7
2022/08/08 06:34:11.000   37.428007230   23.133665363    37.4105   1  22   0.0033   0.0031   0.0073   0.0008  -0.0013  -0.0019   0.00  157.4
2022/08/08 06:34:11.200   37.428007033   23.133665062    37.3680   1  22   0.0033   0.0031   0.0073   0.0008  -0.0013  -0.0019   0.00  161.0
2022/08/08 06:34:11.400   37.428006869   23.133664929    37.3850   1  22   0.0033   0.0031   0.0073   0.0008  -0.0013  -0.0019   0.00  164.7
2022/08/08 06:34:11.600   37.428006850   23.133664928    37.4197   1  22   0.0033   0.0031   0.0073   0.0008  -0.0013  -0.0019   0.00  168.0
2022/08/08 06:34:11.800   37.428006871   23.133664418    37.4608   1  22   0.0033   0.0031   0.0072   0.0009  -0.0011  -0.0019   0.00  171.7
2022/08/08 06:34:12.000   37.428007031   23.133663906    37.4727   1  22   0.0033   0.0031   0.0072   0.0009  -0.0011  -0.0019   0.00  176.3
2022/08/08 06:34:12.200   37.428006953   23.133663857    37.4731   1  22   0.0033   0.0031   0.0072   0.0009  -0.0011  -0.0019   0.00  181.2
2022/08/08 06:34:12.400   37.428006821   23.133663992    37.4701   1  22   0.0033   0.0031   0.0072   0.0009  -0.0011  -0.0019   0.00  185.6
2022/08/08 06:34:12.600   37.428006605   23.133663887    37.4827   1  22   0.0033   0.0031   0.0072   0.0009  -0.0011  -0.0019   0.00  190.3
2022/08/08 06:34:12.800   37.428006516   23.133663693    37.4820   1  22   0.0033   0.0031   0.0072   0.0009  -0.0011  -0.0019   0.00  194.8
2022/08/08 06:34:13.000   37.428006596   23.133663394    37.4511   1  22   0.0033   0.0031   0.0073   0.0008  -0.0012  -0.0019   0.00  198.3
2022/08/08 06:34:13.200   37.428006784   23.133663076    37.3996   1  22   0.0033   0.0031   0.0072   0.0009  -0.0011  -0.0019   0.00  203.1
2022/08/08 06:34:13.400   37.428006898   23.133663055    37.3898   1  22   0.0033   0.0031   0.0072   0.0009  -0.0011  -0.0019   0.00  207.8
2022/08/08 06:34:13.600   37.428006878   23.133663032    37.4170   1  22   0.0033   0.0031   0.0072   0.0009  -0.0011  -0.0019   0.00  212.2
2022/08/08 06:34:13.800   37.428006906   23.133662526    37.4512   1  22   0.0033   0.0031   0.0072   0.0009  -0.0011  -0.0019   0.00  217.0
2022/08/08 06:34:14.000   37.428007091   23.133661820    37.4882   1  22   0.0033   0.0031   0.0073   0.0008  -0.0012  -0.0019   0.00  220.2
2022/08/08 06:34:14.200   37.428007495   23.133661405    37.4834   1  22   0.0033   0.0031   0.0073   0.0008  -0.0013  -0.0019   0.00  223.7
2022/08/08 06:34:14.400   37.428007925   23.133660731    37.4243   1  22   0.0033   0.0031   0.0072   0.0009  -0.0011  -0.0019   0.00  228.2
2022/08/08 06:34:14.600   37.428007783   23.133660148    37.4068   1  22   0.0033   0.0031   0.0072   0.0009  -0.0011  -0.0019   0.00  233.3
2022/08/08 06:34:14.800   37.428007744   23.133659698    37.4236   1  22   0.0033   0.0031   0.0073   0.0008  -0.0012  -0.0019   0.00  236.1
2022/08/08 06:34:15.000   37.428007849   23.133658916    37.4289   1  22   0.0033   0.0031   0.0072   0.0009  -0.0011  -0.0019   0.00  240.1
2022/08/08 06:34:15.200   37.428008207   23.133657694    37.4214   1  22   0.0033   0.0031   0.0072   0.0009  -0.0011  -0.0019   0.00  245.1
2022/08/08 06:34:15.400   37.428008496   23.133657300    37.4428   1  22   0.0033   0.0031   0.0072   0.0009  -0.0011  -0.0019   0.00  249.2
2022/08/08 06:34:15.600   37.428008506   23.133656666    37.4698   1  22   0.0033   0.0031   0.0072   0.0009  -0.0011  -0.0019   0.00  253.4
2022/08/08 06:34:15.800   37.428008912   23.133655390    37.4740   1  22   0.0033   0.0031   0.0072   0.0009  -0.0011  -0.0019   0.00  258.0
2022/08/08 06:34:16.000   37.428009411   23.133654181    37.4171   1  22   0.0033   0.0031   0.0072   0.0009  -0.0011  -0.0019   0.00  262.4
2022/08/08 06:34:16.200   37.428009585   23.133654037    37.4032   1  22   0.0033   0.0031   0.0072   0.0009  -0.0011  -0.0019   0.00  266.5
2022/08/08 06:34:16.400   37.428009781   23.133653424    37.4014   1  22   0.0033   0.0031   0.0072   0.0009  -0.0011  -0.0019   0.00  270.5
2022/08/08 06:34:16.600   37.428009848   23.133652692    37.4288   1  22   0.0033   0.0031   0.0072   0.0009  -0.0011  -0.0019   0.00  274.6
2022/08/08 06:34:16.800   37.428010056   23.133652327    37.4496   1  22   0.0033   0.0031   0.0072   0.0009  -0.0011  -0.0019   0.00  278.8
2022/08/08 06:34:17.000   37.428010300   23.133651822    37.4326   1  22   0.0033   0.0031   0.0073   0.0008  -0.0012  -0.0019   0.00  280.1
2022/08/08 06:34:17.200   37.428010646   23.133651419    37.4141   1  22   0.0034   0.0032   0.0075   0.0006  -0.0010  -0.0022   0.00  289.9
2022/08/08 06:34:17.400   37.428010956   23.133651496    37.3827   1  22   0.0034   0.0031   0.0074   0.0008  -0.0013  -0.0016   0.00  291.7
2022/08/08 06:34:17.600   37.428011494   23.133651678    37.3454   1  22   0.0033   0.0031   0.0073   0.0008  -0.0013  -0.0019   0.00  289.1
2022/08/08 06:34:17.800   37.428011647   23.133652153    37.3593   1  22   0.0033   0.0031   0.0072   0.0009  -0.0011  -0.0019   0.00  295.5
2022/08/08 06:34:18.000   37.428011546   23.133652715    37.4013   1  22   0.0033   0.0031   0.0072   0.0009  -0.0011  -0.0019   0.00  299.5
2022/08/08 06:34:18.200   37.428011324   23.133653211    37.4560   1  22   0.0033   0.0030   0.0071   0.0008   0.0003  -0.0018   0.00  260.2
2022/08/08 06:34:18.400   37.428011375   23.133653419    37.5039   1  22   0.0033   0.0031   0.0073   0.0008  -0.0012  -0.0019   0.00  304.2
2022/08/08 06:34:18.600   37.428011670   23.133653717    37.4984   1  22   0.0033   0.0030   0.0071   0.0007  -0.0004  -0.0018   0.00  262.7
2022/08/08 06:34:18.800   37.428011841   23.133653734    37.4397   1  22   0.0033   0.0031   0.0073   0.0008  -0.0012  -0.0019   0.00  309.8
2022/08/08 06:34:19.000   37.428011842   23.133653891    37.3861   1  22   0.0033   0.0031   0.0073   0.0008  -0.0012  -0.0019   0.00  313.1
2022/08/08 06:34:19.200   37.428011570   23.133654287    37.3723   1  22   0.0033   0.0030   0.0071   0.0007  -0.0004  -0.0018   0.00  270.6
2022/08/08 06:34:19.400   37.428011230   23.133654511    37.3758   1  22   0.0033   0.0031   0.0073   0.0008  -0.0012  -0.0019   0.00  319.4
2022/08/08 06:34:19.600   37.428011056   23.133653978    37.4051   1  22   0.0033   0.0031   0.0073   0.0008  -0.0012  -0.0019   0.00  321.3
2022/08/08 06:34:19.800   37.428010937   23.133653754    37.4188   1  22   0.0033   0.0031   0.0073   0.0008  -0.0013  -0.0019   0.00  323.7
2022/08/08 06:34:20.000   37.428010812   23.133654221    37.4377   1  22   0.0033   0.0031   0.0072   0.0009  -0.0011  -0.0019   0.00  330.7
2022/08/08 06:34:20.200   37.428011092   23.133654822    37.4498   1  22   0.0033   0.0031   0.0072   0.0009  -0.0011  -0.0019   0.00  335.4
2022/08/08 06:34:20.400   37.428011084   23.133654772    37.4647   1  22   0.0033   0.0031   0.0072   0.0009  -0.0011  -0.0019   0.00  338.0
2022/08/08 06:34:20.600   37.428011032   23.133654508    37.4488   1  22   0.0034   0.0031   0.0073   0.0009  -0.0011  -0.0016   0.00  348.9
2022/08/08 06:34:20.800   37.428010972   23.133654677    37.4305   1  22   0.0034   0.0031   0.0073   0.0009  -0.0011  -0.0016   0.00  353.0
2022/08/08 06:34:21.000   37.428010784   23.133655005    37.4153   1  22   0.0034   0.0031   0.0073   0.0009  -0.0011  -0.0016   0.00  357.4
2022/08/08 06:34:21.200   37.428010746   23.133654951    37.4248   1  22   0.0033   0.0031   0.0072   0.0009  -0.0011  -0.0019   0.00  354.9
2022/08/08 06:34:21.400   37.428010835   23.133654741    37.4177   1  22   0.0033   0.0031   0.0072   0.0009  -0.0011  -0.0019   0.00  357.8
2022/08/08 06:34:21.600   37.428010947   23.133654556    37.3991   1  22   0.0033   0.0031   0.0072   0.0009  -0.0011  -0.0019   0.00  362.1
2022/08/08 06:34:21.800   37.428011097   23.133654668    37.3895   1  22   0.0033   0.0031   0.0072   0.0009  -0.0011  -0.0019   0.00  366.5
2022/08/08 06:34:22.000   37.428011455   23.133654880    37.4096   1  22   0.0033   0.0031   0.0072   0.0009  -0.0011  -0.0019   0.00  371.2
2022/08/08 06:34:22.200   37.428011714   23.133654838    37.4379   1  22   0.0033   0.0031   0.0072   0.0009  -0.0011  -0.0019   0.00  374.7
2022/08/08 06:34:22.400   37.428011836   23.133654458    37.4549   1  22   0.0033   0.0031   0.0072   0.0009  -0.0011  -0.0019   0.00  378.5
2022/08/08 06:34:22.600   37.428011695   23.133654266    37.4328   1  22   0.0033   0.0031   0.0072   0.0009  -0.0011  -0.0019   0.00  382.5
2022/08/08 06:34:22.800   37.428011847   23.133654027    37.4040   1  22   0.0033   0.0031   0.0072   0.0009  -0.0011  -0.0019   0.00  386.4
2022/08/08 06:34:23.000   37.428011954   23.133653975    37.4093   1  22   0.0033   0.0031   0.0072   0.0009  -0.0011  -0.0019   0.00  390.6
2022/08/08 06:34:23.200   37.428012439   23.133654059    37.4173   1  22   0.0033   0.0031   0.0073   0.0008  -0.0012  -0.0019   0.00  388.3
2022/08/08 06:34:23.400   37.428012692   23.133653779    37.4336   1  22   0.0033   0.0031   0.0073   0.0008  -0.0013  -0.0019   0.00  391.2
2022/08/08 06:34:23.600   37.428013034   23.133653557    37.4236   1  22   0.0033   0.0031   0.0073   0.0008  -0.0013  -0.0019   0.00  393.6
2022/08/08 06:34:23.800   37.428013377   23.133653937    37.4155   1  22   0.0033   0.0031   0.0073   0.0008  -0.0013  -0.0019   0.00  396.7
2022/08/08 06:34:24.000   37.428013878   23.133653615    37.3924   1  22   0.0034   0.0031   0.0074   0.0008  -0.0013  -0.0015   0.00  406.5
2022/08/08 06:34:24.200   37.428014102   23.133652961    37.3793   1  22   0.0034   0.0031   0.0074   0.0008  -0.0013  -0.0015   0.00  409.4
2022/08/08 06:34:24.400   37.428014067   23.133653066    37.3994   1  22   0.0033   0.0031   0.0073   0.0008  -0.0013  -0.0019   0.00  405.6
2022/08/08 06:34:24.600   37.428014129   23.133653668    37.4380   1  22   0.0033   0.0031   0.0073   0.0008  -0.0013  -0.0019   0.00  409.1
2022/08/08 06:34:24.800   37.428014436   23.133653490    37.4721   1  22   0.0033   0.0031   0.0073   0.0008  -0.0013  -0.0019   0.00  410.8
2022/08/08 06:34:25.000   37.428014983   23.133652892    37.4709   1  22   0.0033   0.0031   0.0072   0.0009  -0.0011  -0.0019   0.00  420.2
2022/08/08 06:34:25.200   37.428015505   23.133653077    37.4201   1  22   0.0033   0.0031   0.0073   0.0008  -0.0013  -0.0019   0.00  416.7
2022/08/08 06:34:25.400   37.428016012   23.133653228    37.3710   1  22   0.0033   0.0031   0.0072   0.0009  -0.0011  -0.0019   0.00  426.3
2022/08/08 06:34:25.600   37.428016283   23.133652979    37.3774   1  22   0.0033   0.0031   0.0072   0.0009  -0.0011  -0.0019   0.00  430.8
2022/08/08 06:34:25.800   37.428016126   23.133653033    37.4145   1  22   0.0033   0.0031   0.0072   0.0009  -0.0011  -0.0019   0.00  435.6
2022/08/08 06:34:26.000   37.428016400   23.133652853    37.4516   1  22   0.0033   0.0031   0.0072   0.0009  -0.0011  -0.0019   0.00  439.5
2022/08/08 06:34:26.200   37.428016873   23.133652415    37.4559   1  22   0.0033   0.0031   0.0072   0.0009  -0.0011  -0.0019   0.00  442.9
2022/08/08 06:34:26.400   37.428017587   23.133651973    37.4179   1  22   0.0033   0.0031   0.0072   0.0009  -0.0011  -0.0019   0.00  446.8
2022/08/08 06:34:26.600   37.428017568   23.133652072    37.4319   1  22   0.0033   0.0030   0.0071   0.0008   0.0003  -0.0018   0.00  390.1
2022/08/08 06:34:26.800   37.428017604   23.133652102    37.4189   1  22   0.0033   0.0031   0.0072   0.0009  -0.0011  -0.0019   0.00  455.4
2022/08/08 06:34:27.000   37.428017588   23.133651774    37.4371   1  22   0.0033   0.0031   0.0072   0.0009  -0.0011  -0.0019   0.00  458.5
2022/08/08 06:34:27.200   37.428017800   23.133651416    37.4011   1  22   0.0033   0.0031   0.0072   0.0009  -0.0011  -0.0019   0.00  463.1
2022/08/08 06:34:27.400   37.428018049   23.133651068    37.3594   1  22   0.0033   0.0030   0.0071   0.0008   0.0003  -0.0018   0.00  403.4
2022/08/08 06:34:27.600   37.428018153   23.133650934    37.3570   1  22   0.0033   0.0030   0.0071   0.0008   0.0003  -0.0018   0.00  406.7
2022/08/08 06:34:27.800   37.428018616   23.133651166    37.3993   1  22   0.0032   0.0030   0.0071   0.0008   0.0003  -0.0018   0.00  409.7
2022/08/08 06:34:28.000   37.428018658   23.133651364    37.4579   1  22   0.0032   0.0030   0.0071   0.0008   0.0003  -0.0018   0.00  412.8
2022/08/08 06:34:28.200   37.428018890   23.133651319    37.4832   1  22   0.0032   0.0030   0.0071   0.0008   0.0003  -0.0018   0.00  415.6
2022/08/08 06:34:28.400   37.428019310   23.133650900    37.4654   1  22   0.0032   0.0030   0.0071   0.0008   0.0003  -0.0018   0.00  417.9
2022/08/08 06:34:28.600   37.428019815   23.133650914    37.3952   1  22   0.0032   0.0030   0.0071   0.0008   0.0003  -0.0018   0.00  421.2
2022/08/08 06:34:28.800   37.428020010   23.133651472    37.3642   1  22   0.0032   0.0030   0.0071   0.0008   0.0003  -0.0018   0.00  424.2
2022/08/08 06:34:29.000   37.428020023   23.133652144    37.3732   1  22   0.0032   0.0030   0.0071   0.0008   0.0003  -0.0018   0.00  427.6
2022/08/08 06:34:29.200   37.428019920   23.133652601    37.4193   1  22   0.0032   0.0030   0.0071   0.0008   0.0003  -0.0018   0.00  430.7
2022/08/08 06:34:29.400   37.428020047   23.133652596    37.4462   1  22   0.0032   0.0030   0.0071   0.0008   0.0003  -0.0018   0.00  433.7
2022/08/08 06:34:29.600   37.428020687   23.133652692    37.4370   1  22   0.0032   0.0030   0.0071   0.0008   0.0003  -0.0018   0.00  436.1
2022/08/08 06:34:29.800   37.428021386   23.133652929    37.4142   1  22   0.0032   0.0030   0.0071   0.0008   0.0003  -0.0018   0.00  439.2
2022/08/08 06:34:30.000   37.428021755   23.133653294    37.4068   1  22   0.0032   0.0030   0.0071   0.0008   0.0003  -0.0018   0.00  441.9
2022/08/08 06:34:30.200   37.428022151   23.133653478    37.4156   1  22   0.0032   0.0030   0.0071   0.0008   0.0003  -0.0018   0.00  445.1
2022/08/08 06:34:30.400   37.428022047   23.133653421    37.4639   1  22   0.0032   0.0030   0.0071   0.0008   0.0003  -0.0018   0.00  448.5
2022/08/08 06:34:30.600   37.428022133   23.133653196    37.4678   1  22   0.0032   0.0030   0.0071   0.0008   0.0003  -0.0018   0.00  451.2
2022/08/08 06:34:30.800   37.428022614   23.133652949    37.4175   1  22   0.0032   0.0030   0.0071   0.0008   0.0003  -0.0018   0.00  453.9
2022/08/08 06:34:31.000   37.428023105   23.133652957    37.3815   1  22   0.0032   0.0030   0.0071   0.0008   0.0003  -0.0018   0.00  457.3
2022/08/08 06:34:31.200   37.428023498   23.133653247    37.3780   1  22   0.0032   0.0030   0.0071   0.0008   0.0003  -0.0018   0.00  460.4
2022/08/08 06:34:31.400   37.428023768   23.133653482    37.4094   1  22   0.0032   0.0030   0.0071   0.0008   0.0003  -0.0018   0.00  463.2
2022/08/08 06:34:31.600   37.428023969   23.133653556    37.4596   1  22   0.0032   0.0030   0.0071   0.0008   0.0003  -0.0018   0.00  465.9
2022/08/08 06:34:31.800   37.428024207   23.133653521    37.5060   1  22   0.0032   0.0030   0.0071   0.0008   0.0003  -0.0018   0.00  468.6
2022/08/08 06:34:32.000   37.428024588   23.133653508    37.5109   1  22   0.0033   0.0031   0.0072   0.0009  -0.0011  -0.0019   0.00  547.1
2022/08/08 06:34:32.200   37.428024842   23.133653394    37.4640   1  22   0.0033   0.0031   0.0072   0.0009  -0.0011  -0.0019   0.00  550.0
2022/08/08 06:34:32.400   37.428025210   23.133653410    37.3900   1  22   0.0033   0.0031   0.0072   0.0009  -0.0011  -0.0019   0.00  553.1
2022/08/08 06:34:32.600   37.428025523   23.133653361    37.3423   1  22   0.0033   0.0030   0.0071   0.0007  -0.0004  -0.0018   0.00  463.1
2022/08/08 06:34:32.800   37.428025660   23.133653217    37.3656   1  22   0.0032   0.0030   0.0071   0.0008   0.0003  -0.0018   0.00  480.3
2022/08/08 06:34:33.000   37.428025973   23.133653232    37.4019   1  22   0.0033   0.0030   0.0071   0.0007  -0.0004  -0.0018   0.00  468.1
2022/08/08 06:34:33.200   37.428026399   23.133653055    37.4488   1  22   0.0033   0.0030   0.0071   0.0007  -0.0004  -0.0018   0.00  468.9
2022/08/08 06:34:33.400   37.428026852   23.133652734    37.4760   1  22   0.0032   0.0030   0.0071   0.0008   0.0003  -0.0018   0.00  485.4
2022/08/08 06:34:33.600   37.428027001   23.133652957    37.4721   1  22   0.0032   0.0030   0.0071   0.0008   0.0003  -0.0018   0.00  488.1
2022/08/08 06:34:33.800   37.428027287   23.133653115    37.4549   1  22   0.0032   0.0030   0.0071   0.0008   0.0003  -0.0018   0.00  490.3
2022/08/08 06:34:34.000   37.428027723   23.133652808    37.4191   1  22   0.0032   0.0030   0.0071   0.0008   0.0003  -0.0018   0.00  492.3
2022/08/08 06:34:34.200   37.428028282   23.133652529    37.3705   1  22   0.0033   0.0030   0.0071   0.0007  -0.0004  -0.0018   0.00  478.3
2022/08/08 06:34:34.400   37.428028720   23.133652583    37.3675   1  22   0.0033   0.0030   0.0071   0.0007  -0.0004  -0.0018   0.00  479.7
2022/08/08 06:34:34.600   37.428029245   23.133652601    37.3945   1  22   0.0033   0.0030   0.0071   0.0006  -0.0004  -0.0018   0.00  481.5
2022/08/08 06:34:34.800   37.428029801   23.133652520    37.4485   1  22   0.0033   0.0030   0.0071   0.0006  -0.0004  -0.0018   0.00  482.9
2022/08/08 06:34:35.000   37.428030088   23.133652844    37.5023   1  22   0.0033   0.0030   0.0071   0.0006  -0.0004  -0.0018   0.00  484.7
2022/08/08 06:34:35.200   37.428030667   23.133652690    37.5075   1  22   0.0032   0.0030   0.0071   0.0008   0.0003  -0.0018   0.00  493.8
2022/08/08 06:34:35.400   37.428031405   23.133652339    37.4649   1  22   0.0032   0.0030   0.0071   0.0008   0.0003  -0.0018   0.00  493.7
2022/08/08 06:34:35.600   37.428031700   23.133652389    37.3872   1  22   0.0032   0.0030   0.0071   0.0008   0.0003  -0.0018   0.00  493.8
2022/08/08 06:34:35.800   37.428032267   23.133652442    37.3281   1  22   0.0032   0.0030   0.0071   0.0008   0.0003  -0.0018   0.00  493.2
2022/08/08 06:34:36.000   37.428032709   23.133651854    37.3330   1  22   0.0032   0.0030   0.0071   0.0008   0.0003  -0.0018   0.00  493.3
2022/08/08 06:34:36.200   37.428033199   23.133651376    37.3708   1  22   0.0032   0.0030   0.0071   0.0008   0.0003  -0.0018   0.00  493.7
2022/08/08 06:34:36.400   37.428033799   23.133651371    37.4331   1  22   0.0032   0.0030   0.0071   0.0008   0.0003  -0.0018   0.00  493.3
2022/08/08 06:34:36.600   37.428034215   23.133651887    37.4946   1  22   0.0032   0.0030   0.0071   0.0008   0.0003  -0.0018   0.00  493.2
2022/08/08 06:34:36.800   37.428034440   23.133652015    37.5447   1  22   0.0032   0.0030   0.0071   0.0008   0.0003  -0.0018   0.00  493.3
2022/08/08 06:34:37.000   37.428034688   23.133652039    37.5553   1  22   0.0032   0.0030   0.0071   0.0008   0.0003  -0.0018   0.00  492.4
2022/08/08 06:34:37.200   37.428035549   23.133651795    37.4485   1  22   0.0034   0.0030   0.0071   0.0009   0.0004  -0.0015   0.00  493.8
2022/08/08 06:34:37.400   37.428035838   23.133651798    37.3434   1  22   0.0033   0.0030   0.0071   0.0008   0.0003  -0.0018   0.00  492.4
2022/08/08 06:34:37.600   37.428036026   23.133651763    37.3100   1  22   0.0033   0.0030   0.0071   0.0008   0.0003  -0.0018   0.00  492.5
2022/08/08 06:34:37.800   37.428036306   23.133651453    37.3437   1  22   0.0032   0.0030   0.0071   0.0008   0.0003  -0.0018   0.00  492.7
2022/08/08 06:34:38.000   37.428036945   23.133650862    37.4107   1  22   0.0032   0.0030   0.0071   0.0008   0.0003  -0.0018   0.00  492.0
2022/08/08 06:34:38.200   37.428037445   23.133650529    37.4701   1  22   0.0032   0.0030   0.0071   0.0008   0.0003  -0.0018   0.00  492.2
2022/08/08 06:34:38.400   37.428037897   23.133650485    37.5133   1  22   0.0032   0.0030   0.0071   0.0008   0.0003  -0.0018   0.00  491.2
2022/08/08 06:34:38.600   37.428038315   23.133650169    37.5012   1  22   0.0032   0.0030   0.0071   0.0008   0.0003  -0.0018   0.00  491.1
2022/08/08 06:34:38.800   37.428038692   23.133650110    37.4580   1  22   0.0032   0.0030   0.0071   0.0008   0.0003  -0.0018   0.00  491.4
2022/08/08 06:34:39.000   37.428038719   23.133650335    37.4363   1  22   0.0032   0.0030   0.0071   0.0008   0.0003  -0.0018   0.00  491.1
2022/08/08 06:34:39.200   37.428038772   23.133650517    37.4176   1  22   0.0032   0.0029   0.0070   0.0007   0.0007  -0.0018   0.00  491.2
2022/08/08 06:34:39.400   37.428039075   23.133650685    37.3792   1  22   0.0032   0.0030   0.0071   0.0008   0.0003  -0.0018   0.00  491.0
2022/08/08 06:34:39.600   37.428039469   23.133650808    37.3707   1  22   0.0032   0.0030   0.0071   0.0008   0.0003  -0.0018   0.00  490.8
2022/08/08 06:34:39.800   37.428039668   23.133651469    37.3871   1  22   0.0032   0.0030   0.0071   0.0008   0.0003  -0.0018   0.00  491.0
2022/08/08 06:34:40.000   37.428039844   23.133652284    37.4107   1  22   0.0032   0.0030   0.0071   0.0008   0.0003  -0.0018   0.00  491.7
2022/08/08 06:34:40.200   37.428040042   23.133652921    37.4453   1  22   0.0032   0.0030   0.0071   0.0008   0.0003  -0.0018   0.00  491.5
2022/08/08 06:34:40.400   37.428039964   23.133653359    37.4924   1  22   0.0032   0.0030   0.0071   0.0008   0.0003  -0.0018   0.00  491.2
2022/08/08 06:34:40.600   37.428039976   23.133654015    37.4943   1  22   0.0032   0.0030   0.0071   0.0008   0.0003  -0.0018   0.00  491.4
2022/08/08 06:34:40.800   37.428039967   23.133654475    37.4869   1  22   0.0032   0.0030   0.0071   0.0008   0.0003  -0.0018   0.00  491.5
2022/08/08 06:34:41.000   37.428040236   23.133654448    37.4261   1  22   0.0032   0.0030   0.0071   0.0008   0.0003  -0.0018   0.00  491.0
2022/08/08 06:34:41.200   37.428040537   23.133654207    37.3589   1  22   0.0032   0.0030   0.0071   0.0008   0.0003  -0.0018   0.00  491.4
2022/08/08 06:34:41.400   37.428040887   23.133654252    37.3218   1  22   0.0032   0.0030   0.0071   0.0008   0.0003  -0.0018   0.00  492.2
2022/08/08 06:34:41.600   37.428041543   23.133654265    37.3476   1  22   0.0032   0.0030   0.0071   0.0008   0.0003  -0.0018   0.00  492.6
2022/08/08 06:34:41.800   37.428042074   23.133654345    37.3977   1  22   0.0032   0.0030   0.0071   0.0008   0.0003  -0.0018   0.00  492.6
2022/08/08 06:34:42.000   37.428042239   23.133654147    37.4651   1  22   0.0032   0.0030   0.0071   0.0008   0.0003  -0.0018   0.00  492.6
2022/08/08 06:34:42.200   37.428042460   23.133653816    37.4968   1  22   0.0032   0.0030   0.0071   0.0008   0.0003  -0.0018   0.00  492.3
2022/08/08 06:34:42.400   37.428042627   23.133654191    37.4777   1  22   0.0032   0.0030   0.0071   0.0008   0.0003  -0.0018   0.00  492.5
2022/08/08 06:34:42.600   37.428042910   23.133654660    37.4476   1  22   0.0032   0.0030   0.0071   0.0008   0.0003  -0.0018   0.00  492.9
2022/08/08 06:34:42.800   37.428043124   23.133654373    37.4222   1  22   0.0032   0.0030   0.0071   0.0008   0.0003  -0.0018   0.00  492.2
2022/08/08 06:34:43.000   37.428043324   23.133654216    37.4052   1  22   0.0032   0.0030   0.0071   0.0008   0.0003  -0.0018   0.00  491.7
2022/08/08 06:34:43.200   37.428043905   23.133654365    37.3935   1  22   0.0033   0.0030   0.0071   0.0006  -0.0004  -0.0018   0.00  495.0
2022/08/08 06:34:43.400   37.428044627   23.133654410    37.3861   1  22   0.0032   0.0030   0.0071   0.0008   0.0003  -0.0018   0.00  491.1
2022/08/08 06:34:43.600   37.428045406   23.133654115    37.3890   1  22   0.0033   0.0030   0.0071   0.0006  -0.0004  -0.0018   0.00  494.7
2022/08/08 06:34:43.800   37.428045989   23.133653878    37.4129   1  22   0.0032   0.0030   0.0071   0.0008   0.0003  -0.0018   0.00  490.2
2022/08/08 06:34:44.000   37.428046381   23.133653880    37.4428   1  22   0.0033   0.0030   0.0071   0.0006  -0.0004  -0.0018   0.00  494.7
2022/08/08 06:34:44.200   37.428046711   23.133654064    37.4683   1  22   0.0033   0.0030   0.0071   0.0006  -0.0004  -0.0018   0.00  493.6
2022/08/08 06:34:44.400   37.428047121   23.133654170    37.4609   1  22   0.0033   0.0030   0.0071   0.0006  -0.0004  -0.0018   0.00  492.8
2022/08/08 06:34:44.600   37.428047430   23.133654449    37.4570   1  22   0.0033   0.0030   0.0071   0.0006  -0.0004  -0.0018   0.00  492.5
2022/08/08 06:34:44.800   37.428047590   23.133654506    37.4564   1  22   0.0033   0.0030   0.0071   0.0006  -0.0004  -0.0018   0.00  492.3
2022/08/08 06:34:45.000   37.428048274   23.133654398    37.4331   1  22   0.0033   0.0030   0.0071   0.0006  -0.0004  -0.0018   0.00  492.2
2022/08/08 06:34:45.200   37.428049038   23.133654320    37.4130   1  22   0.0033   0.0030   0.0071   0.0006  -0.0004  -0.0018   0.00  492.1
2022/08/08 06:34:45.400   37.428049689   23.133654361    37.4155   1  22   0.0033   0.0030   0.0071   0.0006  -0.0004  -0.0018   0.00  492.0
2022/08/08 06:34:45.600   37.428050223   23.133654217    37.4320   1  22   0.0033   0.0030   0.0071   0.0006  -0.0004  -0.0018   0.00  491.3
2022/08/08 06:34:45.800   37.428050835   23.133653849    37.4506   1  22   0.0033   0.0030   0.0071   0.0006  -0.0004  -0.0018   0.00  490.2
2022/08/08 06:34:46.000   37.428051257   23.133653718    37.4390   1  22   0.0033   0.0030   0.0071   0.0006  -0.0004  -0.0018   0.00  490.0
2022/08/08 06:34:46.200   37.428051692   23.133653842    37.4182   1  22   0.0032   0.0030   0.0071   0.0008   0.0003  -0.0018   0.00  477.8
2022/08/08 06:34:46.400   37.428052083   23.133653779    37.4051   1  22   0.0032   0.0030   0.0071   0.0008   0.0003  -0.0018   0.00  477.2
2022/08/08 06:34:46.600   37.428052621   23.133653445    37.4155   1  22   0.0032   0.0029   0.0070   0.0007   0.0008  -0.0017   0.00  476.6
2022/08/08 06:34:46.800   37.428053386   23.133653257    37.4053   1  22   0.0032   0.0029   0.0070   0.0007   0.0009  -0.0017   0.00  476.3
2022/08/08 06:34:47.000   37.428053942   23.133653267    37.4055   1  22   0.0032   0.0030   0.0071   0.0008   0.0003  -0.0018   0.00  477.0
2022/08/08 06:34:47.200   37.428054510   23.133653418    37.4174   1  22   0.0032   0.0030   0.0071   0.0008   0.0003  -0.0018   0.00  477.5
2022/08/08 06:34:47.400   37.428054924   23.133653376    37.4536   1  22   0.0032   0.0030   0.0071   0.0008   0.0003  -0.0018   0.00  477.4
2022/08/08 06:34:47.600   37.428055338   23.133653189    37.4631   1  22   0.0032   0.0030   0.0071   0.0008   0.0003  -0.0018   0.00  477.4
2022/08/08 06:34:47.800   37.428055733   23.133652921    37.4452   1  22   0.0032   0.0030   0.0071   0.0008   0.0003  -0.0018   0.00  476.7
2022/08/08 06:34:48.000   37.428056012   23.133652775    37.4181   1  22   0.0032   0.0030   0.0071   0.0008   0.0003  -0.0018   0.00  476.4
2022/08/08 06:34:48.200   37.428056452   23.133652712    37.3989   1  22   0.0032   0.0030   0.0071   0.0008   0.0003  -0.0018   0.00  476.2
2022/08/08 06:34:48.400   37.428057114   23.133652464    37.4020   1  22   0.0032   0.0030   0.0071   0.0008   0.0003  -0.0018   0.00  476.2
2022/08/08 06:34:48.600   37.428057682   23.133652310    37.4191   1  22   0.0032   0.0030   0.0071   0.0008   0.0003  -0.0018   0.00  476.0
2022/08/08 06:34:48.800   37.428058388   23.133652096    37.4161   1  22   0.0032   0.0030   0.0071   0.0008   0.0003  -0.0018   0.00  475.5
2022/08/08 06:34:49.000   37.428059412   23.133651551    37.4038   1  22   0.0032   0.0030   0.0071   0.0008   0.0003  -0.0018   0.00  475.3
2022/08/08 06:34:49.200   37.428059674   23.133651411    37.3876   1  22   0.0034   0.0030   0.0071   0.0009   0.0004  -0.0015   0.00  495.5
2022/08/08 06:34:49.400   37.428059931   23.133651904    37.4058   1  22   0.0032   0.0030   0.0071   0.0008   0.0003  -0.0018   0.00  476.0
2022/08/08 06:34:49.600   37.428060298   23.133652312    37.4359   1  22   0.0032   0.0030   0.0071   0.0008   0.0003  -0.0018   0.00  476.7
2022/08/08 06:34:49.800   37.428060753   23.133651928    37.4634   1  22   0.0032   0.0030   0.0071   0.0008   0.0003  -0.0018   0.00  475.8
2022/08/08 06:34:50.000   37.428061261   23.133651436    37.4150   1  22   0.0032   0.0030   0.0071   0.0008   0.0003  -0.0018   0.00  475.3
2022/08/08 06:34:50.200   37.428061995   23.133651578    37.3903   1  22   0.0032   0.0030   0.0071   0.0008   0.0003  -0.0018   0.00  474.9
2022/08/08 06:34:50.400   37.428062571   23.133651895    37.3874   1  22   0.0032   0.0030   0.0071   0.0008   0.0003  -0.0018   0.00  475.4
2022/08/08 06:34:50.600   37.428062832   23.133651734    37.4202   1  22   0.0032   0.0029   0.0070   0.0006   0.0009  -0.0017   0.00  475.6
2022/08/08 06:34:50.800   37.428062995   23.133651109    37.4300   1  22   0.0033   0.0030   0.0071   0.0006  -0.0004  -0.0018   0.00  478.8
2022/08/08 06:34:51.000   37.428063363   23.133650525    37.4177   1  22   0.0032   0.0029   0.0070   0.0006   0.0009  -0.0017   0.00  473.4
2022/08/08 06:34:51.200   37.428063685   23.133650490    37.3959   1  22   0.0032   0.0029   0.0070   0.0006   0.0009  -0.0017   0.00  473.7
2022/08/08 06:34:51.400   37.428063971   23.133651070    37.4065   1  22   0.0032   0.0029   0.0069   0.0006   0.0010  -0.0017   0.00  474.1
2022/08/08 06:34:51.600   37.428064124   23.133651179    37.4066   1  22   0.0032   0.0029   0.0069   0.0006   0.0010  -0.0016   0.00    3.9
2022/08/08 06:34:51.800   37.428063942   23.133650935    37.4437   1  22   0.0032   0.0029   0.0069   0.0006   0.0010  -0.0016   0.00    5.0
2022/08/08 06:34:52.000   37.428064124   23.133650739    37.4262   1  22   0.0032   0.0029   0.0069   0.0006   0.0010  -0.0016   0.00    6.2
2022/08/08 06:34:52.200   37.428064686   23.133650785    37.4141   1  22   0.0032   0.0029   0.0069   0.0006   0.0010  -0.0016   0.00    7.4
2022/08/08 06:34:52.400   37.428065105   23.133650899    37.4216   1  22   0.0032   0.0029   0.0069   0.0006   0.0010  -0.0016   0.00    8.6
2022/08/08 06:34:52.600   37.428065428   23.133650518    37.4166   1  22   0.0032   0.0029   0.0069   0.0006   0.0010  -0.0016   0.00    9.7
2022/08/08 06:34:52.800   37.428065675   23.133649767    37.4014   1  22   0.0032   0.0029   0.0069   0.0006   0.0010  -0.0016   0.00   10.9
2022/08/08 06:34:53.000   37.428065841   23.133649390    37.3832   1  22   0.0032   0.0029   0.0069   0.0006   0.0010  -0.0016   0.00   12.0
2022/08/08 06:34:53.200   37.428065793   23.133649727    37.4079   1  22   0.0032   0.0029   0.0069   0.0006   0.0010  -0.0016   0.00   13.2
2022/08/08 06:34:53.400   37.428065996   23.133649687    37.3897   1  22   0.0032   0.0029   0.0069   0.0006   0.0010  -0.0016   0.00   14.3
2022/08/08 06:34:53.600   37.428066196   23.133649352    37.4256   1  22   0.0032   0.0029   0.0069   0.0006   0.0010  -0.0016   0.00   15.4
2022/08/08 06:34:53.800   37.428066391   23.133649041    37.4104   1  22   0.0032   0.0029   0.0069   0.0006   0.0010  -0.0016   0.00   16.5
2022/08/08 06:34:54.000   37.428066871   23.133649137    37.4020   1  22   0.0032   0.0029   0.0069   0.0006   0.0010  -0.0016   0.00   17.7
2022/08/08 06:34:54.200   37.428067543   23.133649126    37.3954   1  22   0.0032   0.0029   0.0069   0.0006   0.0010  -0.0016   0.00   18.8
2022/08/08 06:34:54.400   37.428067964   23.133649214    37.4130   1  22   0.0032   0.0029   0.0069   0.0006   0.0010  -0.0016   0.00   19.9
2022/08/08 06:34:54.600   37.428068123   23.133649273    37.4304   1  22   0.0032   0.0029   0.0069   0.0006   0.0010  -0.0016   0.00   21.1
2022/08/08 06:34:54.800   37.428068359   23.133648965    37.4400   1  22   0.0032   0.0029   0.0069   0.0006   0.0010  -0.0016   0.00   22.2
2022/08/08 06:34:55.000   37.428068466   23.133648506    37.4242   1  22   0.0032   0.0029   0.0069   0.0006   0.0010  -0.0016   0.00   23.3
2022/08/08 06:34:55.200   37.428068867   23.133648207    37.3831   1  22   0.0032   0.0029   0.0069   0.0006   0.0010  -0.0016   0.00   24.4
2022/08/08 06:34:55.400   37.428069144   23.133648877    37.3644   1  22   0.0032   0.0029   0.0069   0.0006   0.0010  -0.0016   0.00   25.5
2022/08/08 06:34:55.600   37.428069085   23.133649917    37.3811   1  22   0.0032   0.0029   0.0069   0.0006   0.0010  -0.0016   0.00   26.6
2022/08/08 06:34:55.800   37.428069376   23.133650721    37.3840   1  22   0.0032   0.0029   0.0069   0.0006   0.0010  -0.0016   0.00   27.6
2022/08/08 06:34:56.000   37.428069568   23.133650992    37.4147   1  22   0.0032   0.0029   0.0069   0.0006   0.0010  -0.0016   0.00   28.7
2022/08/08 06:34:56.200   37.428069964   23.133651206    37.4196   1  22   0.0032   0.0029   0.0069   0.0006   0.0010  -0.0016   0.00   29.8
2022/08/08 06:34:56.400   37.428070263   23.133651817    37.4152   1  22   0.0032   0.0029   0.0069   0.0006   0.0010  -0.0016   0.00   30.8
2022/08/08 06:34:56.600   37.428070335   23.133652497    37.4141   1  22   0.0032   0.0029   0.0069   0.0006   0.0010  -0.0016   0.00   32.0
2022/08/08 06:34:56.800   37.428070205   23.133653012    37.4131   1  22   0.0032   0.0029   0.0069   0.0006   0.0010  -0.0016   0.00   33.1
2022/08/08 06:34:57.000   37.428070208   23.133653105    37.4210   1  22   0.0032   0.0029   0.0069   0.0006   0.0010  -0.0016   0.00   34.1
2022/08/08 06:34:57.200   37.428070680   23.133652815    37.3898   1  22   0.0032   0.0029   0.0069   0.0006   0.0010  -0.0016   0.00   35.3
2022/08/08 06:34:57.400   37.428071076   23.133652735    37.3602   1  22   0.0032   0.0029   0.0069   0.0006   0.0010  -0.0016   0.00   36.5
2022/08/08 06:34:57.600   37.428071588   23.133652830    37.3696   1  22   0.0032   0.0029   0.0069   0.0006   0.0010  -0.0016   0.00   37.6
2022/08/08 06:34:57.800   37.428071973   23.133653329    37.4053   1  22   0.0032   0.0029   0.0069   0.0006   0.0010  -0.0016   0.00   38.7
2022/08/08 06:34:58.000   37.428072431   23.133653547    37.4505   1  22   0.0032   0.0029   0.0069   0.0006   0.0010  -0.0016   0.00   39.8
2022/08/08 06:34:58.200   37.428072900   23.133653035    37.4661   1  22   0.0032   0.0030   0.0071   0.0007   0.0001  -0.0017   0.00   49.9
2022/08/08 06:34:58.400   37.428073144   23.133653116    37.4521   1  22   0.0032   0.0030   0.0071   0.0008   0.0003  -0.0018   0.00  468.8
2022/08/08 06:34:58.600   37.428073552   23.133653499    37.4203   1  22   0.0032   0.0030   0.0071   0.0008   0.0003  -0.0018   0.00  468.5
2022/08/08 06:34:58.800   37.428073841   23.133653534    37.4019   1  22   0.0032   0.0030   0.0071   0.0008   0.0003  -0.0018   0.00  467.8
2022/08/08 06:34:59.000   37.428074195   23.133653119    37.3843   1  22   0.0032   0.0030   0.0071   0.0008   0.0003  -0.0018   0.00  466.8
2022/08/08 06:34:59.200   37.428074289   23.133652487    37.3729   1  22   0.0032   0.0030   0.0071   0.0008   0.0003  -0.0018   0.00  467.4
2022/08/08 06:34:59.400   37.428074194   23.133651919    37.3808   1  22   0.0032   0.0030   0.0071   0.0008   0.0003  -0.0018   0.00  467.4
2022/08/08 06:34:59.600   37.428073868   23.133650551    37.3862   1  22   0.0032   0.0030   0.0071   0.0008   0.0003  -0.0018   0.00  466.0
2022/08/08 06:34:59.800   37.428073398   23.133649419    37.3771   1  22   0.0032   0.0030   0.0071   0.0008   0.0003  -0.0018   0.00  465.3
2022/08/08 06:35:00.000   37.428072853   23.133649176    37.3845   1  22   0.0032   0.0030   0.0071   0.0008   0.0003  -0.0018   0.00  464.5
2022/08/08 06:35:00.200   37.428072259   23.133649089    37.4140   1  22   0.0032   0.0030   0.0071   0.0008   0.0003  -0.0018   0.00  464.3
2022/08/08 06:35:00.400   37.428071744   23.133649063    37.4459   1  22   0.0033   0.0030   0.0071   0.0006  -0.0004  -0.0018   0.00  466.4
2022/08/08 06:35:00.600   37.428071121   23.133648856    37.4674   1  22   0.0033   0.0030   0.0071   0.0006  -0.0004  -0.0018   0.00  466.2
2022/08/08 06:35:00.800   37.428070688   23.133648505    37.4643   1  22   0.0033   0.0029   0.0069   0.0004   0.0009  -0.0016   0.00   41.9
2022/08/08 06:35:01.000   37.428070331   23.133648282    37.4343   1  22   0.0033   0.0031   0.0073   0.0008  -0.0012  -0.0019   0.00  572.6
2022/08/08 06:35:01.200   37.428069963   23.133648076    37.3948   1  22   0.0032   0.0030   0.0071   0.0007  -0.0001  -0.0017   0.00   52.3
2022/08/08 06:35:01.400   37.428069596   23.133648084    37.3654   1  22   0.0032   0.0030   0.0071   0.0007  -0.0001  -0.0017   0.00   53.8
2022/08/08 06:35:01.600   37.428069309   23.133648118    37.3503   1  22   0.0032   0.0030   0.0071   0.0007  -0.0000  -0.0017   0.00   55.1
2022/08/08 06:35:01.800   37.428069106   23.133648083    37.3548   1  22   0.0032   0.0030   0.0071   0.0007  -0.0000  -0.0017   0.00   56.5
2022/08/08 06:35:02.000   37.428068837   23.133648072    37.3793   1  22   0.0032   0.0030   0.0071   0.0007  -0.0000  -0.0017   0.00   57.7
2022/08/08 06:35:02.200   37.428068555   23.133647917    37.4229   1  22   0.0032   0.0030   0.0071   0.0007  -0.0000  -0.0017   0.00   59.0
2022/08/08 06:35:02.400   37.428068523   23.133647607    37.4520   1  22   0.0032   0.0030   0.0071   0.0007  -0.0000  -0.0017   0.00   60.3
2022/08/08 06:35:02.600   37.428068513   23.133647261    37.4404   1  22   0.0032   0.0030   0.0071   0.0007  -0.0000  -0.0017   0.00   61.5
2022/08/08 06:35:02.800   37.428068241   23.133646702    37.4011   1  22   0.0032   0.0030   0.0071   0.0007  -0.0000  -0.0017   0.00   62.7
2022/08/08 06:35:03.000   37.428067954   23.133646411    37.3577   1  22   0.0032   0.0029   0.0069   0.0006   0.0010  -0.0016   0.00   52.6
2022/08/08 06:35:03.200   37.428067686   23.133646372    37.3398   1  22   0.0032   0.0029   0.0069   0.0006   0.0010  -0.0016   0.00   53.7
2022/08/08 06:35:03.400   37.428067726   23.133646402    37.3573   1  22   0.0032   0.0029   0.0069   0.0006   0.0010  -0.0016   0.00   54.8
2022/08/08 06:35:03.600   37.428067295   23.133646339    37.4020   1  22   0.0032   0.0029   0.0069   0.0006   0.0010  -0.0016   0.00   55.9
2022/08/08 06:35:03.800   37.428066876   23.133646474    37.4138   1  22   0.0032   0.0029   0.0069   0.0006   0.0010  -0.0016   0.00   57.1
2022/08/08 06:35:04.000   37.428066598   23.133646550    37.4395   1  21   0.0032   0.0030   0.0071   0.0007   0.0015  -0.0016   0.00   58.5
2022/08/08 06:35:04.200   37.428066319   23.133646240    37.4220   1  21   0.0032   0.0029   0.0071   0.0006   0.0012  -0.0017   0.00   59.4
2022/08/08 06:35:04.400   37.428065783   23.133646086    37.3903   1  22   0.0032   0.0029   0.0069   0.0006   0.0010  -0.0016   0.00   60.1
2022/08/08 06:35:04.600   37.428065151   23.133646348    37.3989   1  22   0.0032   0.0029   0.0069   0.0006   0.0010  -0.0016   0.00   61.2
2022/08/08 06:35:04.800   37.428064933   23.133646587    37.3936   1  22   0.0032   0.0029   0.0069   0.0006   0.0010  -0.0016   0.00   62.4
2022/08/08 06:35:05.000   37.428064492   23.133646815    37.4002   1  22   0.0032   0.0029   0.0069   0.0006   0.0010  -0.0016   0.00   63.5
2022/08/08 06:35:05.200   37.428064229   23.133646990    37.3907   1  21   0.0032   0.0029   0.0071   0.0006   0.0012  -0.0017   0.00   64.9
2022/08/08 06:35:05.400   37.428063981   23.133646831    37.3879   1  21   0.0032   0.0029   0.0071   0.0006   0.0012  -0.0017   0.00   66.0
2022/08/08 06:35:05.600   37.428063577   23.133646562    37.3632   1  22   0.0032   0.0029   0.0069   0.0006   0.0010  -0.0016   0.00   66.5
2022/08/08 06:35:05.800   37.428063102   23.133646698    37.3722   1  22   0.0032   0.0030   0.0071   0.0007   0.0001  -0.0017   0.00   82.3
2022/08/08 06:35:06.000   37.428062639   23.133647113    37.4032   1  22   0.0032   0.0030   0.0071   0.0007   0.0001  -0.0017   0.00   83.8
2022/08/08 06:35:06.200   37.428062419   23.133647308    37.4198   1  22   0.0032   0.0029   0.0069   0.0006   0.0010  -0.0016   0.00   69.9
2022/08/08 06:35:06.400   37.428062111   23.133647282    37.4281   1  22   0.0032   0.0029   0.0069   0.0006   0.0010  -0.0016   0.00   71.1
2022/08/08 06:35:06.600   37.428061806   23.133647324    37.4055   1  22   0.0032   0.0029   0.0069   0.0006   0.0010  -0.0016   0.00   72.2
2022/08/08 06:35:06.800   37.428061496   23.133647708    37.3992   1  22   0.0032   0.0029   0.0069   0.0006   0.0010  -0.0016   0.00   73.2
2022/08/08 06:35:07.000   37.428061022   23.133647952    37.4009   1  22   0.0032   0.0029   0.0069   0.0006   0.0010  -0.0016   0.00   74.3
2022/08/08 06:35:07.200   37.428060825   23.133647743    37.3921   1  22   0.0032   0.0029   0.0069   0.0006   0.0010  -0.0016   0.00   75.2
2022/08/08 06:35:07.400   37.428060750   23.133647355    37.3885   1  22   0.0032   0.0029   0.0069   0.0006   0.0010  -0.0016   0.00   76.1
2022/08/08 06:35:07.600   37.428060581   23.133646854    37.3613   1  22   0.0032   0.0029   0.0069   0.0006   0.0010  -0.0016   0.00   77.1
2022/08/08 06:35:07.800   37.428060465   23.133646306    37.3503   1  22   0.0032   0.0029   0.0069   0.0006   0.0010  -0.0016   0.00   78.0
2022/08/08 06:35:08.000   37.428060301   23.133645919    37.3688   1  22   0.0032   0.0029   0.0069   0.0006   0.0010  -0.0016   0.00   79.0
2022/08/08 06:35:08.200   37.428060037   23.133646112    37.4028   1  22   0.0032   0.0029   0.0069   0.0006   0.0010  -0.0016   0.00   80.0
2022/08/08 06:35:08.400   37.428059731   23.133646064    37.4218   1  22   0.0032   0.0029   0.0069   0.0006   0.0010  -0.0016   0.00   81.0
2022/08/08 06:35:08.600   37.428059569   23.133645642    37.4295   1  22   0.0032   0.0029   0.0069   0.0006   0.0010  -0.0016   0.00   82.1
2022/08/08 06:35:08.800   37.428059256   23.133645578    37.4164   1  22   0.0032   0.0030   0.0071   0.0008   0.0003  -0.0018   0.00  464.2
2022/08/08 06:35:09.000   37.428058845   23.133645670    37.4018   1  22   0.0032   0.0029   0.0069   0.0006   0.0010  -0.0016   0.00   83.2
2022/08/08 06:35:09.200   37.428058477   23.133645077    37.3858   1  22   0.0032   0.0029   0.0069   0.0006   0.0010  -0.0016   0.00   84.1
2022/08/08 06:35:09.400   37.428058275   23.133644480    37.3730   1  22   0.0032   0.0030   0.0071   0.0008   0.0003  -0.0018   0.00  463.4
2022/08/08 06:35:09.600   37.428057790   23.133644182    37.3652   1  22   0.0032   0.0030   0.0071   0.0008   0.0003  -0.0018   0.00  463.6
2022/08/08 06:35:09.800   37.428057451   23.133644325    37.3683   1  22   0.0032   0.0029   0.0069   0.0006   0.0010  -0.0016   0.00   85.1
2022/08/08 06:35:10.000   37.428057232   23.133644302    37.3940   1  22   0.0032   0.0029   0.0069   0.0006   0.0010  -0.0016   0.00   86.1
2022/08/08 06:35:10.200   37.428057060   23.133644600    37.4203   1  22   0.0032   0.0030   0.0071   0.0007   0.0001  -0.0017   0.00  106.3
2022/08/08 06:35:10.400   37.428056833   23.133644930    37.4386   1  22   0.0032   0.0029   0.0069   0.0006   0.0010  -0.0016   0.00   88.0
2022/08/08 06:35:10.600   37.428056423   23.133645000    37.4439   1  22   0.0032   0.0029   0.0069   0.0006   0.0010  -0.0016   0.00   88.9
2022/08/08 06:35:10.800   37.428056035   23.133645000    37.4071   1  22   0.0032   0.0029   0.0069   0.0006   0.0010  -0.0016   0.00   90.0
2022/08/08 06:35:11.000   37.428055553   23.133645031    37.3893   1  22   0.0032   0.0029   0.0069   0.0006   0.0010  -0.0016   0.00   91.0
2022/08/08 06:35:11.200   37.428055194   23.133645135    37.3880   1  22   0.0032   0.0029   0.0069   0.0006   0.0010  -0.0016   0.00   91.9
2022/08/08 06:35:11.400   37.428054853   23.133645513    37.3952   1  22   0.0032   0.0029   0.0069   0.0006   0.0010  -0.0016   0.00   93.0
2022/08/08 06:35:11.600   37.428054667   23.133645747    37.4124   1  22   0.0032   0.0029   0.0069   0.0006   0.0010  -0.0016   0.00   93.9
2022/08/08 06:35:11.800   37.428054367   23.133645945    37.4361   1  22   0.0032   0.0029   0.0069   0.0006   0.0010  -0.0016   0.00   94.9
2022/08/08 06:35:12.000   37.428053954   23.133645966    37.4350   1  22   0.0032   0.0029   0.0069   0.0006   0.0010  -0.0016   0.00   95.9
2022/08/08 06:35:12.200   37.428053508   23.133645965    37.4183   1  22   0.0032   0.0029   0.0069   0.0006   0.0010  -0.0016   0.00   96.9
2022/08/08 06:35:12.400   37.428052982   23.133645899    37.3826   1  22   0.0032   0.0029   0.0069   0.0006   0.0010  -0.0016   0.00   97.9
2022/08/08 06:35:12.600   37.428052490   23.133645912    37.3596   1  22   0.0032   0.0029   0.0069   0.0006   0.0010  -0.0016   0.00   99.1
2022/08/08 06:35:12.800   37.428051998   23.133645759    37.3537   1  22   0.0032   0.0029   0.0069   0.0006   0.0010  -0.0016   0.00  100.0
2022/08/08 06:35:13.000   37.428051723   23.133645344    37.3989   1  22   0.0032   0.0029   0.0069   0.0006   0.0010  -0.0016   0.00  100.9
2022/08/08 06:35:13.200   37.428051608   23.133645460    37.4442   1  22   0.0032   0.0029   0.0069   0.0006   0.0010  -0.0016   0.00  101.7
2022/08/08 06:35:13.400   37.428051206   23.133645609    37.4677   1  22   0.0032   0.0029   0.0069   0.0006   0.0010  -0.0016   0.00  102.5
2022/08/08 06:35:13.600   37.428050433   23.133645368    37.4698   1  22   0.0032   0.0029   0.0069   0.0006   0.0010  -0.0016   0.00  103.4
2022/08/08 06:35:13.800   37.428049776   23.133645035    37.4091   1  22   0.0032   0.0029   0.0069   0.0006   0.0010  -0.0016   0.00  104.4
2022/08/08 06:35:14.000   37.428049176   23.133645085    37.3681   1  22   0.0032   0.0029   0.0069   0.0006   0.0010  -0.0016   0.00  105.5
2022/08/08 06:35:14.200   37.428048544   23.133645288    37.3482   1  22   0.0032   0.0029   0.0069   0.0006   0.0010  -0.0016   0.00  106.4
2022/08/08 06:35:14.400   37.428048333   23.133645358    37.3479   1  22   0.0032   0.0029   0.0069   0.0006   0.0010  -0.0016   0.00  107.4
2022/08/08 06:35:14.600   37.428047920   23.133645308    37.3656   1  22   0.0032   0.0029   0.0069   0.0006   0.0010  -0.0016   0.00  108.3
2022/08/08 06:35:14.800   37.428047392   23.133645081    37.3986   1  22   0.0032   0.0029   0.0069   0.0006   0.0010  -0.0016   0.00  109.2
2022/08/08 06:35:15.000   37.428046804   23.133645174    37.4234   1  22   0.0032   0.0029   0.0069   0.0006   0.0010  -0.0016   0.00  110.2
2022/08/08 06:35:15.200   37.428046105   23.133645567    37.4491   1  22   0.0032   0.0030   0.0071   0.0008   0.0003  -0.0018   0.00  458.9
2022/08/08 06:35:15.400   37.428045551   23.133646089    37.4579   1  22   0.0032   0.0030   0.0071   0.0008   0.0003  -0.0018   0.00  458.7
2022/08/08 06:35:15.600   37.428045130   23.133646278    37.4514   1  22   0.0032   0.0030   0.0071   0.0008   0.0003  -0.0018   0.00  458.2
2022/08/08 06:35:15.800   37.428044969   23.133646190    37.4215   1  22   0.0032   0.0030   0.0071   0.0008   0.0003  -0.0018   0.00  458.2
2022/08/08 06:35:16.000   37.428044807   23.133645654    37.3541   1  22   0.0032   0.0029   0.0069   0.0006   0.0010  -0.0016   0.00  110.9
2022/08/08 06:35:16.200   37.428044257   23.133645195    37.3153   1  22   0.0032   0.0030   0.0071   0.0008   0.0003  -0.0018   0.00  458.7
2022/08/08 06:35:16.400   37.428043354   23.133645110    37.3197   1  22   0.0032   0.0030   0.0071   0.0008   0.0003  -0.0018   0.00  458.2
2022/08/08 06:35:16.600   37.428042666   23.133645293    37.3634   1  22   0.0032   0.0030   0.0071   0.0008   0.0003  -0.0018   0.00  458.1
2022/08/08 06:35:16.800   37.428041969   23.133645461    37.4176   1  22   0.0032   0.0030   0.0071   0.0008   0.0003  -0.0018   0.00  457.9
2022/08/08 06:35:17.000   37.428041395   23.133645807    37.4789   1  22   0.0032   0.0029   0.0069   0.0006   0.0010  -0.0016   0.00  111.5
2022/08/08 06:35:17.200   37.428040760   23.133646052    37.4859   1  22   0.0032   0.0029   0.0069   0.0006   0.0010  -0.0016   0.00  112.4
2022/08/08 06:35:17.400   37.428040260   23.133646478    37.4685   1  22   0.0032   0.0030   0.0071   0.0008   0.0003  -0.0018   0.00  457.2
2022/08/08 06:35:17.600   37.428039976   23.133646744    37.4364   1  22   0.0032   0.0029   0.0069   0.0006   0.0010  -0.0016   0.00  113.3
2022/08/08 06:35:17.800   37.428039699   23.133646843    37.3995   1  22   0.0032   0.0029   0.0069   0.0006   0.0010  -0.0016   0.00  114.2
2022/08/08 06:35:18.000   37.428039275   23.133646641    37.3605   1  22   0.0032   0.0029   0.0069   0.0006   0.0010  -0.0016   0.00  115.0
2022/08/08 06:35:18.200   37.428038498   23.133646108    37.3373   1  22   0.0032   0.0029   0.0069   0.0006   0.0010  -0.0016   0.00  116.1
2022/08/08 06:35:18.400   37.428037772   23.133645746    37.3466   1  22   0.0032   0.0029   0.0069   0.0006   0.0010  -0.0016   0.00  116.9
2022/08/08 06:35:18.600   37.428036912   23.133645915    37.3652   1  22   0.0032   0.0029   0.0069   0.0006   0.0010  -0.0016   0.00  117.8
2022/08/08 06:35:18.800   37.428036187   23.133646299    37.3871   1  22   0.0032   0.0029   0.0069   0.0006   0.0010  -0.0016   0.00  118.8
2022/08/08 06:35:19.000   37.428035686   23.133647069    37.4430   1  22   0.0032   0.0029   0.0069   0.0006   0.0010  -0.0016   0.00  119.4
2022/08/08 06:35:19.200   37.428035311   23.133647451    37.4666   1  22   0.0032   0.0029   0.0069   0.0006   0.0010  -0.0016   0.00  120.4
2022/08/08 06:35:19.400   37.428034787   23.133647293    37.4195   1  22   0.0032   0.0029   0.0069   0.0006   0.0010  -0.0016   0.00  121.5
2022/08/08 06:35:19.600   37.428034181   23.133647114    37.3729   1  22   0.0032   0.0029   0.0069   0.0006   0.0010  -0.0016   0.00  122.4
2022/08/08 06:35:19.800   37.428033294   23.133646872    37.3533   1  22   0.0032   0.0029   0.0069   0.0006   0.0010  -0.0016   0.00  123.4
2022/08/08 06:35:20.000   37.428032223   23.133647047    37.3454   1  22   0.0032   0.0029   0.0069   0.0006   0.0010  -0.0016   0.00  124.1
2022/08/08 06:35:20.200   37.428031520   23.133647243    37.3859   1  22   0.0032   0.0029   0.0069   0.0006   0.0010  -0.0016   0.00  125.1
2022/08/08 06:35:20.400   37.428030756   23.133647603    37.4174   1  22   0.0032   0.0029   0.0069   0.0006   0.0010  -0.0016   0.00  125.8
2022/08/08 06:35:20.600   37.428030051   23.133647637    37.4296   1  22   0.0032   0.0030   0.0071   0.0008   0.0003  -0.0018   0.00  454.2
2022/08/08 06:35:20.800   37.428029634   23.133647753    37.4163   1  22   0.0032   0.0030   0.0071   0.0008   0.0003  -0.0018   0.00  454.6
2022/08/08 06:35:21.000   37.428029208   23.133648029    37.4120   1  22   0.0032   0.0030   0.0071   0.0008   0.0003  -0.0018   0.00  455.0
2022/08/08 06:35:21.200   37.428028535   23.133648007    37.4150   1  22   0.0032   0.0030   0.0071   0.0008   0.0003  -0.0018   0.00  454.5
2022/08/08 06:35:21.400   37.428027856   23.133647883    37.4223   1  22   0.0032   0.0030   0.0071   0.0008   0.0003  -0.0018   0.00  453.8
2022/08/08 06:35:21.600   37.428026961   23.133647762    37.4171   1  22   0.0032   0.0030   0.0071   0.0008   0.0003  -0.0018   0.00  453.3
2022/08/08 06:35:21.800   37.428025989   23.133647573    37.4057   1  22   0.0032   0.0030   0.0071   0.0008   0.0003  -0.0018   0.00  453.2
2022/08/08 06:35:22.000   37.428025183   23.133647679    37.4062   1  22   0.0032   0.0030   0.0071   0.0008   0.0003  -0.0018   0.00  452.9
2022/08/08 06:35:22.200   37.428024455   23.133647588    37.4059   1  22   0.0032   0.0030   0.0071   0.0008   0.0003  -0.0018   0.00  452.5
2022/08/08 06:35:22.400   37.428024052   23.133647127    37.3962   1  22   0.0032   0.0030   0.0071   0.0008   0.0003  -0.0018   0.00  452.1
2022/08/08 06:35:22.600   37.428023847   23.133646657    37.3693   1  22   0.0032   0.0030   0.0071   0.0008   0.0003  -0.0018   0.00  452.5
2022/08/08 06:35:22.800   37.428023337   23.133645988    37.3448   1  22   0.0032   0.0030   0.0071   0.0008   0.0003  -0.0018   0.00  452.3
2022/08/08 06:35:23.000   37.428022813   23.133645443    37.3551   1  22   0.0032   0.0029   0.0069   0.0006   0.0010  -0.0016   0.00  125.5
2022/08/08 06:35:23.200   37.428022047   23.133645498    37.3942   1  22   0.0032   0.0030   0.0071   0.0008   0.0003  -0.0018   0.00  453.1
2022/08/08 06:35:23.400   37.428021305   23.133645614    37.4213   1  22   0.0032   0.0029   0.0069   0.0006   0.0010  -0.0016   0.00  126.4
2022/08/08 06:35:23.600   37.428020739   23.133645396    37.4594   1  22   0.0032   0.0029   0.0069   0.0006   0.0010  -0.0016   0.00  127.3
